var data = { "count": 10785236,
 "photos": [

{"photo_id": 27932, "photo_title": "Casa Mia", "photo_url": "http://www.nicdarkthemes.com/themes/love-travel/wp/demo-travel/wp-content/uploads/2015/05/love-travel-27-780.jpg", "photo_file_url": "http://www.nicdarkthemes.com/themes/love-travel/wp/demo-travel/wp-content/uploads/2015/05/love-travel-27-780.jpg", "latitude": 45.377934, "longitude": 11.899190, "width": 500, "height": 375 }
,
{"photo_id": 522084, "photo_title": "In Memoriam Antoine de Saint Exupéry", "photo_url": "http://www.panoramio.com/photo/522084", "photo_file_url": "http://mw2.google.com/mw-panoramio/photos/medium/522084.jpg", "longitude": 17.470493, "latitude": 47.867077, "width": 500, "height": 350, "upload_date": "21 January 2007", "owner_id": 109117, "owner_name": "Busa Péter", "owner_url": "http://www.panoramio.com/user/109117"}
,
{"photo_id": 1578881, "photo_title": "Rosina Lamberti,Sunset,Templestowe , Victoria, Australia", "photo_url": "http://www.panoramio.com/photo/1578881", "photo_file_url": "http://mw2.google.com/mw-panoramio/photos/medium/1578881.jpg", "longitude": 145.141754, "latitude": -37.766372, "width": 500, "height": 474, "upload_date": "01 April 2007", "owner_id": 140796, "owner_name": "rosina lamberti", "owner_url": "http://www.panoramio.com/user/140796"}
,
{"photo_id": 97671, "photo_title": "kin-dza-dza", "photo_url": "http://www.panoramio.com/photo/97671", "photo_file_url": "http://mw2.google.com/mw-panoramio/photos/medium/97671.jpg", "longitude": 30.785408, "latitude": 46.639301, "width": 500, "height": 375, "upload_date": "09 December 2006", "owner_id": 13058, "owner_name": "Kyryl", "owner_url": "http://www.panoramio.com/user/13058"}
,
{"photo_id": 150165, "photo_title": "Aso crater from the air", "photo_url": "http://www.panoramio.com/photo/150165", "photo_file_url": "http://mw2.google.com/mw-panoramio/photos/medium/150165.jpg", "longitude": 131.083159, "latitude": 32.885390, "width": 500, "height": 375, "upload_date": "14 December 2006", "owner_id": 11781, "owner_name": "ANDRE GARDELLA", "owner_url": "http://www.panoramio.com/user/11781"}
,
{"photo_id": 532631, "photo_title": "Last bath in Oslofjorden - self portrait", "photo_url": "http://www.panoramio.com/photo/532631", "photo_file_url": "http://mw2.google.com/mw-panoramio/photos/medium/532631.jpg", "longitude": 10.782223, "latitude": 59.854773, "width": 500, "height": 205, "upload_date": "22 January 2007", "owner_id": 39160, "owner_name": "Snemann", "owner_url": "http://www.panoramio.com/user/39160"}
,
{"photo_id": 848807, "photo_title": "mystic morning", "photo_url": "http://www.panoramio.com/photo/848807", "photo_file_url": "http://mw2.google.com/mw-panoramio/photos/medium/848807.jpg", "longitude": 10.144372, "latitude": 54.323031, "width": 375, "height": 500, "upload_date": "17 February 2007", "owner_id": 73946, "owner_name": "pembo", "owner_url": "http://www.panoramio.com/user/73946"}
,
{"photo_id": 50872, "photo_title": "Düne 40 auf dem Weg nach Sossusvlei ...", "photo_url": "http://www.panoramio.com/photo/50872", "photo_file_url": "http://mw2.google.com/mw-panoramio/photos/medium/50872.jpg", "longitude": 15.593033, "latitude": -24.720950, "width": 500, "height": 192, "upload_date": "22 September 2006", "owner_id": 7434, "owner_name": "baldinger reisen ag, waedenswil/switzerland", "owner_url": "http://www.panoramio.com/user/7434"}
,
{"photo_id": 2903483, "photo_title": "Reggeli", "photo_url": "http://www.panoramio.com/photo/2903483", "photo_file_url": "http://mw2.google.com/mw-panoramio/photos/medium/2903483.jpg", "longitude": 17.469549, "latitude": 47.868977, "width": 410, "height": 500, "upload_date": "23 June 2007", "owner_id": 109117, "owner_name": "Busa Péter", "owner_url": "http://www.panoramio.com/user/109117"}
,
{"photo_id": 7593894, "photo_title": "桂林名胜百景——遇龙河", "photo_url": "http://www.panoramio.com/photo/7593894", "photo_file_url": "http://mw2.google.com/mw-panoramio/photos/medium/7593894.jpg", "longitude": 110.424957, "latitude": 24.781747, "width": 500, "height": 375, "upload_date": "04 February 2008", "owner_id": 161470, "owner_name": "John Su", "owner_url": "http://www.panoramio.com/user/161470"}


]}

